{
  "status": "success",
  "answer": "以下是基于您提供的查询和结果进行的分析。我将从数据洞察、统计解读、业务建议和结果验证四个方面展开，确保内容自然友好且专业。\n\n---\n\n### 1. 数据洞察\n- **是否回答了用户的问题？**  \n  是的，查询结果明确列出了武汉的7个5A级景区，直接满足了用户对“武汉5A景区”的查询需求。用户可能希望获取一份完整的列表，用于旅游规划或信息参考。\n\n- **有趣的模式或趋势**  \n  - **类型多样性**：武汉的5A景区涵盖了自然风光（如武汉东湖景区）、历史文化（如黄鹤楼公园）和生态旅游（如黄陂木兰文化生态旅游区）等多种类型，显示武汉旅游资源丰富且分布均衡。  \n  - **命名特征**：部分景区名称强调文化或生态主题（例如“木兰文化生态旅游区”），这可能反映了武汉在旅游开发中注重融合地方特色（如木兰文化）与可持续发展理念。\n\n- **异常值或值得注意的地方**  \n  无显著异常值，但值得注意的是，查询结果显示“还有4条记录”未详细列出。这可能包括更多新兴或小众5A景区，建议进一步补充完整列表以避免遗漏关键信息。\n\n---\n\n### 2. 统计解读\n- **统计结果的意义**  \n  武汉拥有7个5A级景区，在全国城市中属于较高水平（作为参考，北京有8个5A景区）。5A级是中国旅游景区的最高等级，代表其在设施、服务和管理上的卓越品质。\n\n- **业务角度解读**  \n  - **旅游竞争力**：武汉的5A景区数量彰显了其作为重要旅游目的地的实力，有助于吸引国内外游客，推动当地经济发展。  \n  - **资源分布**：景区类型多样，可满足不同游客需求（如家庭游、文化游或生态游），但需关注景区之间的联动性，以提升整体旅游体验。\n\n- **关键发现**  \n  黄鹤楼公园和东湖景区作为武汉的标志性景点， likely 是游客首选；而黄陂木兰生态旅游区则体现了乡村旅游或文化深度游的潜力。这种组合有助于武汉平衡“传统热点”与“新兴亮点”的旅游发展策略。\n\n---\n\n### 3. 业务建议\n- **相关建议**  \n  - **旅游推广**：针对不同类型的景区设计主题线路（例如“文化古迹游”围绕黄鹤楼，“自然生态游”聚焦东湖和木兰生态区），并通过数字平台（如社交媒体或旅游APP）进行精准营销。  \n  - **游客体验优化**：建议整合景区资源，推出联票或交通套票，减少游客规划负担；同时加强景区间的基础设施连接（如 shuttle bus 服务）。\n\n- **后续查询方向**  \n  - 如果用户是游客，可进一步查询“武汉5A景区的最佳游览季节”或“景区门票预订方式”。  \n  - 如果用户是业务决策者，可探索“武汉5A景区的游客满意度数据”或“与周边城市（如长沙、郑州）的景区对比分析”。\n\n- **行动建议**  \n  对于个人游客：优先游览东湖和黄鹤楼（代表性强），并根据兴趣添加1-2个生态景区以丰富行程。对于旅游从业者：关注木兰文化生态旅游区等新兴景点的客流量趋势，提前布局相关服务。\n\n---\n\n### 4. 结果验证\n- **结果完整性和准确性**  \n  当前结果列出了3个详细景区和4条未列出的记录，基本覆盖了武汉的知名5A景区（根据公开数据，武汉共有7个5A景区，包括东湖、黄鹤楼、木兰生态区、归元禅寺等）。但未列出全部名称可能影响用户决策，建议补充完整数据。\n\n- **数据局限性**  \n  - 查询结果未包含景区的具体信息（如地址、开放时间或游客评价），这可能限制用户的深度规划。  \n  - “是否空间查询”标记为False，表明结果未提供地理位置数据，若用户需要地图导航或路线优化，则需额外查询。\n\n- **如需更多数据**  \n  建议补充景区的游客量、门票价格及季节性活动数据，以帮助用户评估拥挤程度和性价比。例如，黄鹤楼在节假日可能人流量大，而东湖在春季赏樱时更受欢迎。\n\n---\n\n### 总结\n武汉的5A景区资源丰富且多元，充分体现了其在自然、文化和生态方面的优势。用户可直接基于此结果规划行程，但建议进一步细化查询以提升体验。如果您需要更详细的信息（如景区开放时间或游客评价），我很乐意协助您深入探索！",
  "data": [
    {
      "name": "武汉东湖景区",
      "level": "5A",
      "province": "湖北",
      "city": "武汉市",
      "district": "武昌区",
      "address": "湖北武汉武昌东湖翠柳村18号武汉东湖景区",
      "rating": null,
      "ticket_price": null,
      "introduction": null,
      "opening_hours": null,
      "coordinates": [
        114.3689739,
        30.57579469
      ]
    },
    {
      "name": "武汉市黄鹤楼公园",
      "level": "5A",
      "province": "湖北",
      "city": "武汉市",
      "district": "武昌区",
      "address": "湖北武汉武昌蛇山西山坡1号武汉市黄鹤楼公园",
      "rating": null,
      "ticket_price": null,
      "introduction": null,
      "opening_hours": null,
      "coordinates": [
        114.2993632,
        30.54660946
      ]
    },
    {
      "name": "湖北省武汉市黄陂木兰文化生态旅游区",
      "level": "5A",
      "province": "湖北",
      "city": "武汉市",
      "district": "黄陂区",
      "address": "湖北武汉武汉市黄陂区胜景大道77号湖北省武汉市黄陂木兰文化生态旅游区",
      "rating": null,
      "ticket_price": null,
      "introduction": null,
      "opening_hours": null,
      "coordinates": [
        114.3911263,
        31.09529084
      ]
    },
    {
      "name": "黄陂木兰文化生态旅游区（木兰山）",
      "level": "5A",
      "province": "湖北",
      "city": "武汉市",
      "district": "黄陂区",
      "address": "湖北武汉武汉市黄陂区胜景大道木兰山风景区服务中心黄陂木兰文化生态旅游区（木兰山）",
      "rating": null,
      "ticket_price": null,
      "introduction": null,
      "opening_hours": null,
      "coordinates": [
        114.3911263,
        31.09529084
      ]
    },
    {
      "name": "黄陂木兰文化生态旅游区（木兰天池）",
      "level": "5A",
      "province": "湖北",
      "city": "武汉市",
      "district": "黄陂区",
      "address": "湖北武汉武汉市黄陂区长轩岭街官田村龙池堰黄陂木兰文化生态旅游区（木兰天池）",
      "rating": null,
      "ticket_price": null,
      "introduction": null,
      "opening_hours": null,
      "coordinates": [
        114.3246978,
        31.17256274
      ]
    },
    {
      "name": "黄陂木兰文化生态旅游区（木兰草原）",
      "level": "5A",
      "province": "湖北",
      "city": "武汉市",
      "district": "黄陂区",
      "address": "湖北武汉武汉市黄陂区王家河街聂家岗黄陂木兰文化生态旅游区（木兰草原）",
      "rating": null,
      "ticket_price": null,
      "introduction": null,
      "opening_hours": null,
      "coordinates": [
        114.4543809,
        30.95654816
      ]
    },
    {
      "name": "黄陂木兰文化生态旅游区（木兰云雾山）",
      "level": "5A",
      "province": "湖北",
      "city": "武汉市",
      "district": "黄陂区",
      "address": "湖北武汉武汉市黄陂区李家集街泡桐云雾山景区黄陂木兰文化生态旅游区（木兰云雾山）",
      "rating": null,
      "ticket_price": null,
      "introduction": null,
      "opening_hours": null,
      "coordinates": [
        114.4551745,
        31.10175255
      ]
    }
  ],
  "count": 7,
  "message": "查询成功",
  "sql": "SELECT json_agg(json_build_object(\n    'name', COALESCE(ts.name, a.name),\n    'level', a.level,\n    'province', a.\"所属省份\",\n    'city', a.\"所属城市\",\n    'district', a.\"所属区县\",\n    'address', COALESCE(ts.\"地址\", a.address),\n    'rating', CASE \n        WHEN ts.\"评分\" ~ '^\\d+(\\.\\d+)?$' THEN ts.\"评分\"::numeric \n        ELSE NULL \n    END,\n    'ticket_price', ts.\"门票\",\n    'introduction', ts.\"介绍\",\n    'opening_hours', ts.\"开放时间\",\n    'coordinates', CASE \n        WHEN a.lng_wgs84 IS NOT NULL AND a.lat_wgs84 IS NOT NULL \n        THEN json_build_array(a.lng_wgs84, a.lat_wgs84)\n        ELSE NULL \n    END\n)) as result\nFROM a_sight a\nLEFT JOIN tourist_spot ts ON (\n    ts.name LIKE a.name || '%' \n    OR TRIM(SPLIT_PART(ts.name, ' ', 1)) = a.name\n    OR ts.\"城市\" = a.\"所属城市\"\n)\nWHERE a.\"所属城市\" = '武汉市' \n  AND a.level = '5A'\n  AND (a.lng_wgs84 IS NOT NULL OR ts.id IS NOT NULL);",
  "intent_info": {
    "intent_type": "query",
    "is_spatial": false,
    "confidence": 0.9,
    "reasoning": "用户查询'查询武汉的5A景区'中，关键词'查询'明确表明用户需要获取具体的记录列表而非统计数字。查询内容涉及特定地点'武汉'和特定类型的景区'5A景区'，用户意图是获取武汉地区所有5A级景区的详细信息列表。查询中未涉及任何空间概念关键词如'附近'、'距离'、'周边'等，因此不涉及空间查询。基于明确的关键词匹配和典型的查询模式，分析置信度较高。",
    "keywords_matched": [
      "查询",
      "武汉",
      "5A景区"
    ],
    "prompt_type": "scenic_query",
    "description": "用户查询'查询武汉的5A景区'中，关键词'查询'明确表明用户需要获取具体的记录列表而非统计数字。查询内容涉及特定地点'武汉'和特定类型的景区'5A景区'，用户意图是获取武汉地区所有5A级景区的详细信息列表。查询中未涉及任何空间概念关键词如'附近'、'距离'、'周边'等，因此不涉及空间查询。基于明确的关键词匹配和典型的查询模式，分析置信度较高。",
    "analysis_details": {
      "method": "llm_with_pydantic",
      "model": "deepseek-chat",
      "summary_score": 0.0,
      "spatial_score": 0.0,
      "scenic_score": 0.5
    },
    "semantic_enhanced": true
  }
}